{
"type": "FeatureCollection",
"name": "SUMUR_DALAM_PT",
"crs": { "type": "name", "properties": { "name": "urn:ogc:def:crs:OGC:1.3:CRS84" } },
"features": [
{ "type": "Feature", "properties": { "JENIS": "AIR BERSIH", "TOPINIMI": "TPU CIKERAI", "KETERANGAN": "SUMUR DALAM", "X": "106,040479470551", "Y": "-6,07343622230377" }, "geometry": { "type": "Point", "coordinates": [ 106.040479470551205, -6.073436222303776, 0.0 ] } },
{ "type": "Feature", "properties": { "JENIS": "AIR BERSIH", "TOPINIMI": "KP PASIR ANGIN", "KETERANGAN": "SUMUR DALAM", "X": "106,031907137305", "Y": "-6,07476414684783" }, "geometry": { "type": "Point", "coordinates": [ 106.0319071373046, -6.074764146847818, 0.0 ] } },
{ "type": "Feature", "properties": { "JENIS": "AIR BERSIH", "TOPINIMI": "KP BENTOLE", "KETERANGAN": "SUMUR DALAM", "X": "106,047625980854", "Y": "-6,0543469202741" }, "geometry": { "type": "Point", "coordinates": [ 106.047625980854392, -6.054346920274095, 0.0 ] } },
{ "type": "Feature", "properties": { "JENIS": "AIR BERSIH", "TOPINIMI": "KP JERUK NIPIS", "KETERANGAN": "SUMUR DALAM", "X": "106,048768877082", "Y": "-6,05665113983821" }, "geometry": { "type": "Point", "coordinates": [ 106.048768877082082, -6.056651139838218, 0.0 ] } },
{ "type": "Feature", "properties": { "JENIS": "AIR BERSIH", "TOPINIMI": "KP CIPAOT", "KETERANGAN": "SUMUR DALAM", "X": "106,044014361074", "Y": "-6,06035964448193" }, "geometry": { "type": "Point", "coordinates": [ 106.044014361073963, -6.060359644481935, 0.0 ] } },
{ "type": "Feature", "properties": { "JENIS": "AIR BERSIH", "TOPINIMI": "LINK PEJATEN", "KETERANGAN": "SUMUR DALAM", "X": "106,037852281957", "Y": "-6,07458091807484" }, "geometry": { "type": "Point", "coordinates": [ 106.037852281957342, -6.074580918074836, 0.0 ] } },
{ "type": "Feature", "properties": { "JENIS": "AIR BERSIH", "TOPINIMI": "LING SAMBIRANGON", "KETERANGAN": "SUMUR DALAM", "X": "106,052001676336", "Y": "-6,04166668446987" }, "geometry": { "type": "Point", "coordinates": [ 106.052001676336388, -6.04166668446987, 0.0 ] } },
{ "type": "Feature", "properties": { "JENIS": "AIR BERSIH", "TOPINIMI": "LINK PANAKODAN", "KETERANGAN": "SUMUR DALAM", "X": "106,035311829377", "Y": "-6,07856551818406" }, "geometry": { "type": "Point", "coordinates": [ 106.035311829377477, -6.078565518184064, 0.0 ] } },
{ "type": "Feature", "properties": { "JENIS": "AIR BERSIH", "TOPINIMI": "KP CILOER", "KETERANGAN": "SUMUR DALAM", "X": "106,002356820511", "Y": "-6,02879001784498" }, "geometry": { "type": "Point", "coordinates": [ 106.002356820510911, -6.028790017844986, 0.0 ] } },
{ "type": "Feature", "properties": { "JENIS": "AIR BERSIH", "TOPINIMI": "LING PEMALANG", "KETERANGAN": "SUMUR DALAM", "X": "106,004927102704", "Y": "-6,02623460953953" }, "geometry": { "type": "Point", "coordinates": [ 106.004927102703689, -6.026234609539528, 0.0 ] } },
{ "type": "Feature", "properties": { "JENIS": "AIR BERSIH", "TOPINIMI": "AWAL LINK KOLELET", "KETERANGAN": "SUMUR DALAM", "X": "106,008742523249", "Y": "-6,02278144310907" }, "geometry": { "type": "Point", "coordinates": [ 106.008742523248898, -6.022781443109071, 0.0 ] } },
{ "type": "Feature", "properties": { "JENIS": "AIR BERSIH", "TOPINIMI": "LING SUMUR WATU", "KETERANGAN": "SUMUR DALAM", "X": "106,005890704692", "Y": "-6,03433709737908" }, "geometry": { "type": "Point", "coordinates": [ 106.005890704692334, -6.034337097379076, 0.0 ] } }
]
}
