{
"type": "FeatureCollection",
"name": "SUMUR_DALAM_PT",
"crs": { "type": "name", "properties": { "name": "urn:ogc:def:crs:OGC:1.3:CRS84" } },
"features": [
{ "type": "Feature", "properties": { "JENIS": "AIR BERSIH", "TOPINIMI": "TPU CIKERAI", "KETERANGAN": "SUMUR DALAM", "X": "106,040479470324", "Y": "-6,0734362227115" }, "geometry": { "type": "Point", "coordinates": [ 106.04047947032447, -6.073436222711496, 0.0 ] } },
{ "type": "Feature", "properties": { "JENIS": "AIR BERSIH", "TOPINIMI": "KP PASIR ANGIN", "KETERANGAN": "SUMUR DALAM", "X": "106,031907137619", "Y": "-6,0747641466075" }, "geometry": { "type": "Point", "coordinates": [ 106.031907137619456, -6.074764146607498, 0.0 ] } },
{ "type": "Feature", "properties": { "JENIS": "AIR BERSIH", "TOPINIMI": "KP BENTOLE", "KETERANGAN": "SUMUR DALAM", "X": "106,047625980542", "Y": "-6,05434692057854" }, "geometry": { "type": "Point", "coordinates": [ 106.047625980541852, -6.054346920578541, 0.0 ] } },
{ "type": "Feature", "properties": { "JENIS": "AIR BERSIH", "TOPINIMI": "KP JERUK NIPIS", "KETERANGAN": "SUMUR DALAM", "X": "106,048768877223", "Y": "-6,05665114043986" }, "geometry": { "type": "Point", "coordinates": [ 106.048768877223196, -6.056651140439865, 0.0 ] } },
{ "type": "Feature", "properties": { "JENIS": "AIR BERSIH", "TOPINIMI": "KP CIPAOT", "KETERANGAN": "SUMUR DALAM", "X": "106,04401436045", "Y": "-6,06035964473366" }, "geometry": { "type": "Point", "coordinates": [ 106.04401436045049, -6.060359644733655, 0.0 ] } },
{ "type": "Feature", "properties": { "JENIS": "AIR BERSIH", "TOPINIMI": "LINK PEJATEN", "KETERANGAN": "SUMUR DALAM", "X": "106,037852281685", "Y": "-6,07458091821614" }, "geometry": { "type": "Point", "coordinates": [ 106.037852281684934, -6.074580918216137, 0.0 ] } },
{ "type": "Feature", "properties": { "JENIS": "AIR BERSIH", "TOPINIMI": "LING SAMBIRANGON", "KETERANGAN": "SUMUR DALAM", "X": "106,052001676084", "Y": "-6,04166668483057" }, "geometry": { "type": "Point", "coordinates": [ 106.052001676084387, -6.04166668483057, 0.0 ] } },
{ "type": "Feature", "properties": { "JENIS": "AIR BERSIH", "TOPINIMI": "LINK PANAKODAN", "KETERANGAN": "SUMUR DALAM", "X": "106,035311829511", "Y": "-6,07856551892187" }, "geometry": { "type": "Point", "coordinates": [ 106.035311829511443, -6.078565518921872, 0.0 ] } },
{ "type": "Feature", "properties": { "JENIS": "AIR BERSIH", "TOPINIMI": "KP CILOER", "KETERANGAN": "SUMUR DALAM", "X": "106,002356819928", "Y": "-6,02879001771126" }, "geometry": { "type": "Point", "coordinates": [ 106.002356819928508, -6.02879001771126, 0.0 ] } },
{ "type": "Feature", "properties": { "JENIS": "AIR BERSIH", "TOPINIMI": "LING PEMALANG", "KETERANGAN": "SUMUR DALAM", "X": "106,004927103268", "Y": "-6,026234609645" }, "geometry": { "type": "Point", "coordinates": [ 106.004927103267875, -6.026234609644997, 0.0 ] } },
{ "type": "Feature", "properties": { "JENIS": "AIR BERSIH", "TOPINIMI": "AWAL LINK KOLELET", "KETERANGAN": "SUMUR DALAM", "X": "106,008742522694", "Y": "-6,02278144389346" }, "geometry": { "type": "Point", "coordinates": [ 106.008742522693595, -6.022781443893457, 0.0 ] } },
{ "type": "Feature", "properties": { "JENIS": "AIR BERSIH", "TOPINIMI": "LING SUMUR WATU", "KETERANGAN": "SUMUR DALAM", "X": "106,005890704324", "Y": "-6,03433709820148" }, "geometry": { "type": "Point", "coordinates": [ 106.005890704323733, -6.034337098201477, 0.0 ] } },
{ "type": "Feature", "properties": { "JENIS": "AIR BERSIH", "TOPINIMI": "LING KUWENI", "KETERANGAN": "SUMUR DALAM", "X": "106,054581625668", "Y": "-6,05820461832799" }, "geometry": { "type": "Point", "coordinates": [ 106.054581625667694, -6.058204618327985, 0.0 ] } },
{ "type": "Feature", "properties": { "JENIS": "AIR BERSIH", "TOPINIMI": "LING TAMIANG", "KETERANGAN": "SUMUR DALAM", "X": "106,021912646665", "Y": "-6,03579061903136" }, "geometry": { "type": "Point", "coordinates": [ 106.021912646665029, -6.035790619031358, 0.0 ] } },
{ "type": "Feature", "properties": { "JENIS": "AIR BERSIH", "TOPINIMI": "DEPAN KANTOR KEL CIKERAI", "KETERANGAN": "SUMUR DALAM", "X": "106,03844792473", "Y": "-6,07420893663663" }, "geometry": { "type": "Point", "coordinates": [ 106.038447924730178, -6.074208936636631, 0.0 ] } },
{ "type": "Feature", "properties": { "JENIS": "AIR BERSIH", "TOPINIMI": "LING KUBANG LESUNG", "KETERANGAN": "SUMUR DALAM", "X": "106,031813406921", "Y": "-6,03011889743444" }, "geometry": { "type": "Point", "coordinates": [ 106.031813406921032, -6.030118897434443, 0.0 ] } },
{ "type": "Feature", "properties": { "JENIS": "AIR BERSIH", "TOPINIMI": "LING TAMAN BARU", "KETERANGAN": "SUMUR DALAM", "X": "106,030710989355", "Y": "-6,03003958148211" }, "geometry": { "type": "Point", "coordinates": [ 106.030710989354816, -6.030039581482108, 0.0 ] } },
{ "type": "Feature", "properties": { "JENIS": "AIR BERSIH", "TOPINIMI": "LING JULALEN", "KETERANGAN": "SUMUR DALAM", "X": "106,022819976906", "Y": "-6,02336123271171" }, "geometry": { "type": "Point", "coordinates": [ 106.022819976905694, -6.023361232711713, 0.0 ] } },
{ "type": "Feature", "properties": { "JENIS": "AIR BERSIH", "TOPINIMI": "LING CIGOBANG", "KETERANGAN": "SUMUR DALAM", "X": "105,975890814785", "Y": "-6,04265884896809" }, "geometry": { "type": "Point", "coordinates": [ 105.975890814785117, -6.042658848968086, 0.0 ] } },
{ "type": "Feature", "properties": { "JENIS": "AIR BERSIH", "TOPINIMI": "LING CIPONDOY", "KETERANGAN": "SUMUR DALAM", "X": "105,978954382833", "Y": "-6,04298800621283" }, "geometry": { "type": "Point", "coordinates": [ 105.978954382832541, -6.042988006212832, 0.0 ] } },
{ "type": "Feature", "properties": { "JENIS": "AIR BERSIH", "TOPINIMI": "LING GELERENG", "KETERANGAN": "SUMUR DALAM", "X": "105,975613042487", "Y": "-6,03385854560455" }, "geometry": { "type": "Point", "coordinates": [ 105.975613042486742, -6.033858545604552, 0.0 ] } },
{ "type": "Feature", "properties": { "JENIS": "AIR BERSIH", "TOPINIMI": "LING COMBONG", "KETERANGAN": "SUMUR DALAM", "X": "105,966104280468", "Y": "-6,04704508308069" }, "geometry": { "type": "Point", "coordinates": [ 105.966104280468301, -6.047045083080685, 0.0 ] } },
{ "type": "Feature", "properties": { "JENIS": "AIR BERSIH", "TOPINIMI": "LING KOPO", "KETERANGAN": "SUMUR DALAM", "X": "105,95025180037", "Y": "-6,04975943204314" }, "geometry": { "type": "Point", "coordinates": [ 105.950251800370424, -6.049759432043136, 0.0 ] } },
{ "type": "Feature", "properties": { "JENIS": "AIR BERSIH", "TOPINIMI": "LING KARANG BOLONG", "KETERANGAN": "SUMUR DALAM", "X": "105,97822713601", "Y": "-6,04555809779113" }, "geometry": { "type": "Point", "coordinates": [ 105.978227136009835, -6.045558097791127, 0.0 ] } },
{ "type": "Feature", "properties": { "JENIS": "AIR BERSIH", "TOPINIMI": "KANTOR KEL GUNUNG SUGIH", "KETERANGAN": "SUMUR DALAM", "X": "105,942652355026", "Y": "-6,03376284781603" }, "geometry": { "type": "Point", "coordinates": [ 105.942652355026169, -6.033762847816028, 0.0 ] } },
{ "type": "Feature", "properties": { "JENIS": "AIR BERSIH", "TOPINIMI": "LING TEMUGIRING", "KETERANGAN": "SUMUR DALAM", "X": "105,997721150935", "Y": "-6,02840959250665" }, "geometry": { "type": "Point", "coordinates": [ 105.997721150935448, -6.02840959250665, 0.0 ] } },
{ "type": "Feature", "properties": { "JENIS": "AIR BERSIH", "TOPINIMI": "LING CIGOBANG", "KETERANGAN": "SUMUR DALAM", "X": "105,973698808306", "Y": "-6,04466172897848" }, "geometry": { "type": "Point", "coordinates": [ 105.973698808306352, -6.044661728978475, 0.0 ] } },
{ "type": "Feature", "properties": { "JENIS": "AIR BERSIH", "TOPINIMI": "LING CIPAOT", "KETERANGAN": "SUMUR DALAM", "X": "105,967572051171", "Y": "-6,04931277475917" }, "geometry": { "type": "Point", "coordinates": [ 105.967572051170691, -6.049312774759171, 0.0 ] } },
{ "type": "Feature", "properties": { "JENIS": "AIR BERSIH", "TOPINIMI": "LING CIKOPO SABRANG", "KETERANGAN": "SUMUR DALAM", "X": "105,949867953924", "Y": "-6,0472636611742" }, "geometry": { "type": "Point", "coordinates": [ 105.949867953923643, -6.047263661174198, 0.0 ] } },
{ "type": "Feature", "properties": { "JENIS": "AIR BERSIH", "TOPINIMI": "LING CURUG MADRASAH", "KETERANGAN": "SUMUR DALAM", "X": "106,033888511175", "Y": "-6,04762580971202" }, "geometry": { "type": "Point", "coordinates": [ 106.033888511174865, -6.047625809712015, 0.0 ] } },
{ "type": "Feature", "properties": { "JENIS": "AIR BERSIH", "TOPINIMI": "LING CURUG KEPUH", "KETERANGAN": "SUMUR DALAM", "X": "106,033214096284", "Y": "-6,04932752517489" }, "geometry": { "type": "Point", "coordinates": [ 106.03321409628407, -6.049327525174886, 0.0 ] } },
{ "type": "Feature", "properties": { "JENIS": "AIR BERSIH", "TOPINIMI": "LING CURUG SEKOLAH", "KETERANGAN": "SUMUR DALAM", "X": "106,03587782644", "Y": "-6,04844510106598" }, "geometry": { "type": "Point", "coordinates": [ 106.035877826440043, -6.048445101065975, 0.0 ] } },
{ "type": "Feature", "properties": { "JENIS": "AIR BERSIH", "TOPINIMI": "LING JELAWE", "KETERANGAN": "SUMUR DALAM", "X": "106,031317801013", "Y": "-5,90517375055386" }, "geometry": { "type": "Point", "coordinates": [ 106.031317801012918, -5.90517375055386, 0.0 ] } },
{ "type": "Feature", "properties": { "JENIS": "AIR BERSIH", "TOPINIMI": "LING KP SAWAH", "KETERANGAN": "SUMUR DALAM", "X": "106,006724627436", "Y": "-5,92214195989619" }, "geometry": { "type": "Point", "coordinates": [ 106.006724627436441, -5.922141959896186, 0.0 ] } },
{ "type": "Feature", "properties": { "JENIS": "AIR BERSIH", "TOPINIMI": "LING GUNUNG BATUR", "KETERANGAN": "SUMUR DALAM", "X": "106,005192326182", "Y": "-5,94394312074862" }, "geometry": { "type": "Point", "coordinates": [ 106.005192326181714, -5.943943120748619, 0.0 ] } },
{ "type": "Feature", "properties": { "JENIS": "AIR BERSIH", "TOPINIMI": "LING KELURAHAN MEKARSARI", "KETERANGAN": "SUMUR DALAM", "X": "106,01661355213", "Y": "-5,93065329962642" }, "geometry": { "type": "Point", "coordinates": [ 106.016613552129684, -5.930653299626417, 0.0 ] } },
{ "type": "Feature", "properties": { "JENIS": "AIR BERSIH", "TOPINIMI": "LING SUKAMULYA", "KETERANGAN": "SUMUR DALAM", "X": "106,008909671713", "Y": "-5,94146707191225" }, "geometry": { "type": "Point", "coordinates": [ 106.008909671713255, -5.94146707191225, 0.0 ] } },
{ "type": "Feature", "properties": { "JENIS": "AIR BERSIH", "TOPINIMI": "LING SUMUR GEDE", "KETERANGAN": "SUMUR DALAM", "X": "106,021411780096", "Y": "-5,90687439133571" }, "geometry": { "type": "Point", "coordinates": [ 106.021411780096301, -5.906874391335712, 0.0 ] } },
{ "type": "Feature", "properties": { "JENIS": "AIR BERSIH", "TOPINIMI": "LING CISALAK II", "KETERANGAN": "SUMUR DALAM", "X": "106,036408214013", "Y": "-5,91265345704102" }, "geometry": { "type": "Point", "coordinates": [ 106.03640821401261, -5.912653457041025, 0.0 ] } },
{ "type": "Feature", "properties": { "JENIS": "AIR BERSIH", "TOPINIMI": "LING KEMBANG KUNING", "KETERANGAN": "SUMUR DALAM", "X": "106,031234182124", "Y": "-5,90880091268991" }, "geometry": { "type": "Point", "coordinates": [ 106.031234182124507, -5.908800912689912, 0.0 ] } },
{ "type": "Feature", "properties": { "JENIS": "AIR BERSIH", "TOPINIMI": "LING KEBON PISANG", "KETERANGAN": "SUMUR DALAM", "X": "106,019630654775", "Y": "-5,90104367303067" }, "geometry": { "type": "Point", "coordinates": [ 106.019630654775185, -5.901043673030665, 0.0 ] } },
{ "type": "Feature", "properties": { "JENIS": "AIR BERSIH", "TOPINIMI": "LING WILULANG", "KETERANGAN": "SUMUR DALAM", "X": "106,011060964192", "Y": "-5,91737642190898" }, "geometry": { "type": "Point", "coordinates": [ 106.011060964191998, -5.917376421908984, 0.0 ] } },
{ "type": "Feature", "properties": { "JENIS": "AIR BERSIH", "TOPINIMI": "LING CIORA TENGAH", "KETERANGAN": "SUMUR DALAM", "X": "106,031707341236", "Y": "-5,97855426301362" }, "geometry": { "type": "Point", "coordinates": [ 106.031707341236512, -5.978554263013624, 0.0 ] } },
{ "type": "Feature", "properties": { "JENIS": "AIR BERSIH", "TOPINIMI": "LING CIORA KWISTA", "KETERANGAN": "SUMUR DALAM", "X": "106,028556604267", "Y": "-5,97971791712554" }, "geometry": { "type": "Point", "coordinates": [ 106.02855660426728, -5.979717917125542, 0.0 ] } },
{ "type": "Feature", "properties": { "JENIS": "AIR BERSIH", "TOPINIMI": "LING CIPINANG ATAS", "KETERANGAN": "SUMUR DALAM", "X": "106,028972404455", "Y": "-5,97500475065121" }, "geometry": { "type": "Point", "coordinates": [ 106.028972404455047, -5.97500475065121, 0.0 ] } },
{ "type": "Feature", "properties": { "JENIS": "AIR BERSIH", "TOPINIMI": "LING CIORE WATAN", "KETERANGAN": "SUMUR DALAM", "X": "106,031546964249", "Y": "-5,97974848885676" }, "geometry": { "type": "Point", "coordinates": [ 106.031546964248605, -5.979748488856757, 0.0 ] } },
{ "type": "Feature", "properties": { "JENIS": "AIR BERSIH", "TOPINIMI": "LING KELOTOH DAN CIKUASA", "KETERANGAN": "SUMUR DALAM", "X": "106,008433568067", "Y": "-5,95285554297979" }, "geometry": { "type": "Point", "coordinates": [ 106.008433568066692, -5.952855542979789, 0.0 ] } },
{ "type": "Feature", "properties": { "JENIS": "AIR BERSIH", "TOPINIMI": "LING CIPINANG HILIR", "KETERANGAN": "SUMUR DALAM", "X": "106,025622603434", "Y": "-5,98084497194363" }, "geometry": { "type": "Point", "coordinates": [ 106.025622603433717, -5.980844971943627, 0.0 ] } },
{ "type": "Feature", "properties": { "JENIS": "AIR BERSIH", "TOPINIMI": "LING GEREM KULON", "KETERANGAN": "SUMUR DALAM", "X": "106,015944306039", "Y": "-5,96959297970324" }, "geometry": { "type": "Point", "coordinates": [ 106.015944306039103, -5.96959297970324, 0.0 ] } },
{ "type": "Feature", "properties": { "JENIS": "AIR BERSIH", "TOPINIMI": "LING KAGUNGAN", "KETERANGAN": "SUMUR DALAM", "X": "106,022350822751", "Y": "-5,96547472200504" }, "geometry": { "type": "Point", "coordinates": [ 106.022350822751378, -5.965474722005039, 0.0 ] } },
{ "type": "Feature", "properties": { "JENIS": "AIR BERSIH", "TOPINIMI": "LING CIORA JAYA", "KETERANGAN": "SUMUR DALAM", "X": "106,031695553571", "Y": "-5,97225904535469" }, "geometry": { "type": "Point", "coordinates": [ 106.031695553570756, -5.972259045354694, 0.0 ] } },
{ "type": "Feature", "properties": { "JENIS": "AIR BERSIH", "TOPINIMI": "LING CIKEBEL ATAS", "KETERANGAN": "SUMUR DALAM", "X": "106,03800142007", "Y": "-5,96272293187563" }, "geometry": { "type": "Point", "coordinates": [ 106.038001420070287, -5.962722931875627, 0.0 ] } },
{ "type": "Feature", "properties": { "JENIS": "AIR BERSIH", "TOPINIMI": "LING CIPINANG TENGAH", "KETERANGAN": "SUMUR DALAM", "X": "106,027639617917", "Y": "-5,96274236192416" }, "geometry": { "type": "Point", "coordinates": [ 106.027639617916961, -5.96274236192416, 0.0 ] } },
{ "type": "Feature", "properties": { "JENIS": "AIR BERSIH", "TOPINIMI": "LING KUBANG LAMPIT", "KETERANGAN": "SUMUR DALAM", "X": "106,056326600703", "Y": "-5,97926724208107" }, "geometry": { "type": "Point", "coordinates": [ 106.056326600702974, -5.979267242081066, 0.0 ] } },
{ "type": "Feature", "properties": { "JENIS": "AIR BERSIH", "TOPINIMI": "LING PECINAN", "KETERANGAN": "SUMUR DALAM", "X": "106,055368075701", "Y": "-5,96935596388504" }, "geometry": { "type": "Point", "coordinates": [ 106.055368075700841, -5.969355963885035, 0.0 ] } },
{ "type": "Feature", "properties": { "JENIS": "AIR BERSIH", "TOPINIMI": "LING PANESAPAN BAWAH", "KETERANGAN": "SUMUR DALAM", "X": "106,057171053561", "Y": "-5,96737168907889" }, "geometry": { "type": "Point", "coordinates": [ 106.057171053561376, -5.967371689078887, 0.0 ] } },
{ "type": "Feature", "properties": { "JENIS": "AIR BERSIH", "TOPINIMI": "LING PANESAPAN", "KETERANGAN": "SUMUR DALAM", "X": "106,057171053561", "Y": "-5,96737168907889" }, "geometry": { "type": "Point", "coordinates": [ 106.057171053561376, -5.967371689078887, 0.0 ] } },
{ "type": "Feature", "properties": { "JENIS": "AIR BERSIH", "TOPINIMI": "LING GEMPOL", "KETERANGAN": "SUMUR DALAM", "X": "106,048997424729", "Y": "-5,96368798792859" }, "geometry": { "type": "Point", "coordinates": [ 106.048997424729464, -5.963687987928586, 0.0 ] } },
{ "type": "Feature", "properties": { "JENIS": "AIR BERSIH", "TOPINIMI": "LING GEMPOL WETAN", "KETERANGAN": "SUMUR DALAM", "X": "106,049908875901", "Y": "-5,96317974111397" }, "geometry": { "type": "Point", "coordinates": [ 106.049908875900783, -5.963179741113973, 0.0 ] } },
{ "type": "Feature", "properties": { "JENIS": "AIR BERSIH", "TOPINIMI": "LING GEMPOL WETAN 2", "KETERANGAN": "SUMUR DALAM", "X": "106,050114399629", "Y": "-5,96199447477257" }, "geometry": { "type": "Point", "coordinates": [ 106.050114399628953, -5.961994474772572, 0.0 ] } },
{ "type": "Feature", "properties": { "JENIS": "AIR BERSIH", "TOPINIMI": "LING GEDONG DALEM", "KETERANGAN": "SUMUR DALAM", "X": "106,063965816958", "Y": "-5,99608485128952" }, "geometry": { "type": "Point", "coordinates": [ 106.063965816958344, -5.996084851289519, 0.0 ] } },
{ "type": "Feature", "properties": { "JENIS": "AIR BERSIH", "TOPINIMI": "LING SAMANDARAN", "KETERANGAN": "SUMUR DALAM", "X": "106,074486919796", "Y": "-6,00794912306805" }, "geometry": { "type": "Point", "coordinates": [ 106.074486919796172, -6.00794912306805, 0.0 ] } },
{ "type": "Feature", "properties": { "JENIS": "AIR BERSIH", "TOPINIMI": "LING SUKALILA", "KETERANGAN": "SUMUR DALAM", "X": "106,076328397873", "Y": "-6,00255483040735" }, "geometry": { "type": "Point", "coordinates": [ 106.07632839787324, -6.002554830407351, 0.0 ] } },
{ "type": "Feature", "properties": { "JENIS": "AIR BERSIH", "TOPINIMI": "LING KUBANG LABAN", "KETERANGAN": "SUMUR DALAM", "X": "106,066923175451", "Y": "-6,0116270682278" }, "geometry": { "type": "Point", "coordinates": [ 106.066923175450526, -6.011627068227798, 0.0 ] } }
]
}
