{
"type": "FeatureCollection",
"name": "TPA_PT",
"crs": { "type": "name", "properties": { "name": "urn:ogc:def:crs:OGC:1.3:CRS84" } },
"features": [
{ "type": "Feature", "properties": { "JENIS": "PERSAMPAHAN", "TOPONIMI": "TPA SEMANG RAYA UPTD II LH", "KETERANGAN": "TPA", "X": "105,9984186", "Y": "-6,01547969999996" }, "geometry": { "type": "Point", "coordinates": [ 105.998418600000036, -6.015479699999958, 0.0 ] } },
{ "type": "Feature", "properties": { "JENIS": "PERSAMPAHAN", "TOPONIMI": "TPA WADUK KRENCENG UPTD II LH", "KETERANGAN": "TPA", "X": "106,0250998", "Y": "-6,01436569999993" }, "geometry": { "type": "Point", "coordinates": [ 106.025099800000078, -6.014365699999928, 0.0 ] } },
{ "type": "Feature", "properties": { "JENIS": "PERSAMPAHAN", "TOPONIMI": "TPA KORPRI UPTD II LH", "KETERANGAN": "TPA", "X": "106,041977", "Y": "-6,01659829999994" }, "geometry": { "type": "Point", "coordinates": [ 106.041977, -6.016598299999941, 0.0 ] } },
{ "type": "Feature", "properties": { "JENIS": "PERSAMPAHAN", "TOPONIMI": "TPA MAKAMBALUNG UPTD II LH", "KETERANGAN": "TPA", "X": "106,0426703", "Y": "-6,02005629999996" }, "geometry": { "type": "Point", "coordinates": [ 106.042670300000054, -6.020056299999965, 0.0 ] } },
{ "type": "Feature", "properties": { "JENIS": "PERSAMPAHAN", "TOPONIMI": "TPA JL BUYUT ARMAN UPTD II LH", "KETERANGAN": "TPA", "X": "106,0402265", "Y": "-6,01409539999997" }, "geometry": { "type": "Point", "coordinates": [ 106.040226500000074, -6.014095399999974, 0.0 ] } },
{ "type": "Feature", "properties": { "JENIS": "PERSAMPAHAN", "TOPONIMI": "TPA PESANTREN ASHIMIAH UPTD II LH", "KETERANGAN": "TPA", "X": "105,9721392", "Y": "-6,02141659999995" }, "geometry": { "type": "Point", "coordinates": [ 105.972139200000072, -6.021416599999952, 0.0 ] } },
{ "type": "Feature", "properties": { "JENIS": "PERSAMPAHAN", "TOPONIMI": "TPA JL. SUNAN BONANG UPTD II LH", "KETERANGAN": "TPA", "X": "105,9887981", "Y": "-6,01132829999995" }, "geometry": { "type": "Point", "coordinates": [ 105.988798100000054, -6.011328299999946, 0.0 ] } }
]
}
